{"protocolSection":{"identificationModule":{"nctId":"NCT04468659","orgStudyIdInfo":{"id":"BAN2401-G000-303"},"secondaryIdInfos":[{"id":"R01AG054029","type":"NIH","link":"https://reporter.nih.gov/quickSearch/R01AG054029"},{"id":"R01AG061848","type":"NIH","link":"https://reporter.nih.gov/quickSearch/R01AG061848"},{"id":"2020-004244-28","type":"EUDRACT_NUMBER"}],"organization":{"fullName":"Eisai Inc.","class":"INDUSTRY"},"briefTitle":"AHEAD 3-45 Study: A Study to Evaluate Efficacy and Safety of Treatment With Lecanemab in Participants With Preclinical Alzheimer's Disease and Elevated Amyloid and Also in Participants With Early Preclinical Alzheimer's Disease and Intermediate Amyloid","officialTitle":"AHEAD 3-45 Study: A Placebo-Controlled, Double-Blind, Parallel-Treatment Arm, 216 Week Study With an Extension Phase to Evaluate Efficacy and Safety of Treatment With BAN2401 in Subjects With Preclinical Alzheimer's Disease and Elevated Amyloid (A45 Trial) and in Subjects With Early Preclinical Alzheimer's Disease and Intermediate Amyloid (A3 Trial)"},"statusModule":{"statusVerifiedDate":"2026-06","overallStatus":"ACTIVE_NOT_RECRUITING","expandedAccessInfo":{"hasExpandedAccess":false},"startDateStruct":{"date":"2020-07-14","type":"ACTUAL"},"primaryCompletionDateStruct":{"date":"2028-12-21","type":"ESTIMATED"},"completionDateStruct":{"date":"2031-01-16","type":"ESTIMATED"},"studyFirstSubmitDate":"2020-07-09","studyFirstSubmitQcDate":"2020-07-09","studyFirstPostDateStruct":{"date":"2020-07-13","type":"ACTUAL"},"lastUpdateSubmitDate":"2026-06-03","lastUpdatePostDateStruct":{"date":"2026-06-04","type":"ACTUAL"}},"sponsorCollaboratorsModule":{"responsibleParty":{"type":"SPONSOR"},"leadSponsor":{"name":"Eisai Inc.","class":"INDUSTRY"},"collaborators":[{"name":"Alzheimer's Clinical Trials Consortium","class":"OTHER"},{"name":"Biogen","class":"INDUSTRY"},{"name":"National Institute on Aging (NIA)","class":"NIH"}]},"oversightModule":{"oversightHasDmc":true,"isFdaRegulatedDrug":true,"isFdaRegulatedDevice":false},"descriptionModule":{"briefSummary":"The primary purpose of this study is to determine whether treatment with lecanemab is superior to placebo on change from baseline of the Preclinical Alzheimer Cognitive Composite 5 (PACC5) at 216 weeks of treatment (A45 Trial) and to determine whether treatment with lecanemab is superior to placebo in reducing brain amyloid accumulation as measured by amyloid positron emission tomography (PET) at 216 weeks of treatment (A3 Trial). This study will also evaluate the long-term safety and tolerability of lecanemab in participants enrolled in the Extension Phase."},"conditionsModule":{"conditions":["Preclinical Alzheimer's Disease","Early Preclinical Alzheimer's Disease"],"keywords":["BAN2401","Preclinical Alzheimer's disease","Elevated amyloid","Early preclinical Alzheimer's disease","Intermediate amyloid","A45 Trial","A3 Trial","AHEAD 3-45","Lecanemab"]},"designModule":{"studyType":"INTERVENTIONAL","phases":["PHASE3"],"designInfo":{"allocation":"RANDOMIZED","interventionModel":"PARALLEL","primaryPurpose":"TREATMENT","maskingInfo":{"masking":"QUADRUPLE","whoMasked":["PARTICIPANT","CARE_PROVIDER","INVESTIGATOR","OUTCOMES_ASSESSOR"]}},"enrollmentInfo":{"count":1400,"type":"ESTIMATED"}},"armsInterventionsModule":{"armGroups":[{"label":"A45 Trial: Lecanemab 5 mg/kg + 10 mg/kg (Core Study)","type":"EXPERIMENTAL","description":"Participants will receive lecanemab 5 milligram per kilogram (mg/kg), administered as intravenous (IV) infusion, every two weeks from Week 0 to 6, then 10 mg/kg, administered as IV infusion, every two weeks from Week 8 to 94, and 10 mg/kg, administered as IV infusion, every four weeks from Week 96 to 216 in core study.","interventionNames":["Drug: Lecanemab"]},{"label":"A45 Trial: Placebo (Core Study)","type":"PLACEBO_COMPARATOR","description":"Participants will receive placebo (0.9 percent \\[%\\] sodium chloride solution), administered as IV infusion, every two weeks from Week 0 to 94, then every four weeks from Week 96 to 216.","interventionNames":["Drug: Placebo"]},{"label":"A3 Trial: Lecanemab 5 mg/kg + 10 mg/kg (Core Study)","type":"EXPERIMENTAL","description":"Participants will receive lecanemab 5 mg/kg, administered as IV infusion, every four weeks from Week 0 to 4, then 10 mg/kg, administered as IV infusion, every four weeks from Week 8 to 216 in core study.","interventionNames":["Drug: Lecanemab"]},{"label":"A3 Trial: Placebo (Core Study)","type":"PLACEBO_COMPARATOR","description":"Participants will receive placebo (0.9% sodium chloride solution), administered as IV infusion, every four weeks from Week 0 to 216.","interventionNames":["Drug: Placebo"]},{"label":"A3 and A45 Trial: Lecanemab 10 mg/kg (Extension Phase)","type":"EXPERIMENTAL","description":"Participants (from either A3 or A45 Trial) progressing to early Alzheimer's disease (EAD) during the core study (progressors) will receive lecanemab 10 mg/kg, administered as IV infusion, every two weeks after transition to the extension phase for at least 216 weeks from randomization in the core study. Participants completing the core study (completers) will enter extension phase and will receive lecanemab 5 mg/kg for initial 4 doses, than 10 mg/kg, administered as IV infusion, every two weeks for up to 96 weeks in extension phase.","interventionNames":["Drug: Lecanemab"]}],"interventions":[{"type":"DRUG","name":"Lecanemab","description":"IV infusion.","armGroupLabels":["A3 Trial: Lecanemab 5 mg/kg + 10 mg/kg (Core Study)","A3 and A45 Trial: Lecanemab 10 mg/kg (Extension Phase)","A45 Trial: Lecanemab 5 mg/kg + 10 mg/kg (Core Study)"],"otherNames":["BAN2401"]},{"type":"DRUG","name":"Placebo","description":"IV infusion.","armGroupLabels":["A3 Trial: Placebo (Core Study)","A45 Trial: Placebo (Core Study)"]}]},"outcomesModule":{"primaryOutcomes":[{"measure":"A45 Trial: Change From Baseline in Preclinical Alzheimer Cognitive Composite 5 (PACC5) Score at Week 216","description":"PACC5(5 components):Free/cued selective reminding test:number of words recalled without cuing/with cuing(0\\[worst\\]-96\\[best recall\\]);Delayed Paragraph Recall test: recall of 1 short story(25 bits information),immediately after reading and again after delay of 30 minutes (0\\[worst\\]-25\\[best recall\\]);Digit-symbol substitution test: Participant uses a key to fill in blank squares as fast as possible in 90 seconds(0\\[none\\]-91\\[best performance\\]);Mini Mental State Score:to evaluate orientation,memory,attention,concentration,naming,repetition,comprehension and ability to create sentence,to copy 2 overlapping pentagons, scored as number of correctly completed items(0\\[worse\\]-30\\[perfect performance\\]);Category fluency task: participants generate words in 60 second belonging to a semantic category(total score:number of appropriate words generated per task, higher values indicate better performance).","timeFrame":"Baseline, Week 216"},{"measure":"A3 Trial: Change From Baseline in Amyloid Positron Emission Tomography (PET) Standard Uptake Value Ratio (SUVr) at Week 216","timeFrame":"Baseline, Week 216"}],"secondaryOutcomes":[{"measure":"A45 Trial: Change From Baseline in Amyloid Positron Emission Tomography (PET) Standard Uptake Value Ratio (SUVr) at Weeks 96 and 216","timeFrame":"Baseline, Week 96, Week 216"},{"measure":"A45 Trial: Change From Baseline in tau Positron Emission Tomography (PET) Standard Uptake Value Ratio (SUVr) at Weeks 96 and 216","timeFrame":"Baseline, Week 96, Week 216"},{"measure":"A45 Trial: Change From Baseline in Cognitive Function Index (CFI) at Week 216","description":"CFI assessment to assess the participant's perceived ability to perform high-level functional tasks in daily life and sense of overall cognitive functional ability. Study participants (18 questions) and their study partners (15 questions) independently rate the participant's abilities. Total score combines participant and study partner scores, with higher scores indicating greater impairment.","timeFrame":"Baseline, Week 216"},{"measure":"A3 Trial: Change From Baseline in tau Positron Emission Tomography (PET) Standard Uptake Value Ratio (SUVr) at Week 216","timeFrame":"Baseline, Week 216"}]},"eligibilityModule":{"eligibilityCriteria":"Inclusion criteria:\n\nParticipants must meet all of the following criteria to be included in this study:\n\n1. Male or female, age 55 to 80 years inclusive at the time of informed consent, with a plasma biomarker result that is predictive of intermediate or elevated brain amyloid at Screening or known before Screening to have elevated or intermediate amyloid according to previous PET, cerebrospinal fluid (CSF), or plasma testing\n\n   • Those 55 to 64 must have 1 of the following additional risk factors, given the relatively low rates of amyloid positivity less than (\\<) 65 years, before screening:\n   * First degree relative diagnosed with dementia onset before age 75, or\n   * Known to possess at least 1 apolipoprotein E4 variant (APOE4) allele, or\n   * Known before screening to have elevated brain amyloid according to previous plasma biomarker results, PET imaging, or CSF testing\n2. Global Clinical Dementia Rating (CDR) score of 0 at screening\n3. Mini Mental State Examination score greater than or equal to (\\>=) 27 (with educational adjustments) at screening.\n4. Wechsler Memory Scale-Revised Logical Memory subscale II (WMS-R LM II) score at screening of \\>=6\n5. A45 Trial: Elevated brain amyloid pathology by amyloid PET: defined as approximately greater than (\\>) 40 Centiloids on screening scan A3 Trial: Intermediate levels of brain amyloid pathology by amyloid PET: defined as approximately 20 to 40 Centiloids on screening scan\n6. Has a study partner that is willing to participate as a source of information and has approximately weekly contact with the participant (contact can be in-person, via telephone or electronic communication). The study partner must have sufficient contact such that the investigator feels the study partner can provide meaningful information about the participant's daily function\n7. Provide written (or electronic, if allowed per country-specific regulations) informed consent\n8. Willing and able to comply with all aspects of the protocol\n\nFor extension phase :\n\n1. Completed the Core Study, or meet the following progression criteria during the Core Study:\n\n   * Two consecutive CDR visits with Global Scores \\> zero when measured at least 6 months apart within the Core Study\n   * The principal investigator's confirmation that the participant has clinically declined consistent progression to EAD\n2. Must continue to have a study partner who is willing and able to provide follow-up information on the participant throughout the course of the Extension Phase. The study partner must provide separate written informed consent for the Extension Phase. Study partners must continue to have sufficient contact such that the investigator feels the study partner can provide meaningful information about the participant's daily functions\n3. Provide written informed consent for the Extension Phase. If a participant lacks capacity to consent in the investigator's opinion, the participant's assent should be obtained, if required and in accordance with local laws, regulations, and customs, plus the written informed consent of a legal representative (capacity to consent and the definition of a legal representative should be determined in accordance with applicable local laws and regulations). In countries where local laws, regulations, and customs do not permit participants who lack capacity to consent to participate in this study (example, Spain), they will not be enrolled\n4. Willing and able to comply with all aspects of the protocol\n\nExclusion criteria:\n\nParticipants who meet any of the following criteria will be excluded from this study:\n\n1. Females who are breastfeeding or pregnant at screening or baseline\n2. Females of childbearing potential who:\n\n   • Within 28 days before study entry, did not use a highly effective method of contraception For sites outside of Europe, it is permissible that if a highly effective method of contraception is not appropriate or acceptable to the participant, then the participant must agree to use a medically acceptable method of contraception\n3. History of transient ischemic attacks (TIA), stroke, or seizures within 12 months of screening\n4. Current or history within the past 2 years of psychiatric diagnosis or symptoms that, in the opinion of the investigator, could interfere with study procedures\n5. Contraindications to 3 Tesla magnetic resonance imaging (MRI) scanning, including cardiac pacemaker/defibrillator, ferromagnetic metal implants (example, in-skull and cardiac devices other than those approved as safe for use in MRI scanners), or exhibit other significant pathological findings on brain MRI at Screening\n6. Hypersensitivity to any monoclonal antibody treatment\n7. Any immunological disease which is not adequately controlled, or which requires treatment with immunoglobulins, systemic monoclonal antibodies (or derivatives of monoclonal antibodies), systemic immunosuppressants, or plasmapheresis during the study\n8. Bleeding disorder that is not under adequate control (including a platelet count \\<50,000 or international normalized ratio \\[INR\\] \\>1.5) at screening\n9. Results of laboratory tests conducted during screening that are outside the following limits:\n\n   * Thyroid stimulating hormone (TSH) above normal range\n   * Abnormally low (below lower limit of normal \\[LLN\\]) serum vitamin B12 levels for the testing laboratory (if participant is taking vitamin B12 injections, level should be at or above the LLN for the testing laboratory). A low vitamin B12 is exclusionary, unless the required follow-up labs (homocysteine and methylmalonic acid \\[MMA\\]) indicate that it is not physiologically significant\n10. Known to be human immunodeficiency virus (HIV) positive\n11. Any other clinically significant abnormalities that in the opinion of the investigator require further investigation or treatment or may interfere with study procedures or safety\n12. Malignant neoplasms within 3 years of screening (except for basal or squamous cell carcinoma in situ of the skin, or localized prostate cancer in male participants with treatment cycles completed at least 6 months before screening). Participants who had malignant neoplasms but who have had at least 3 years of documented uninterrupted remission before screening need not be excluded\n13. Answer \"yes\" to Columbia-Suicide Severity Rating Scale (C-SSRS) suicidal ideation Type 4 or 5, or any suicidal behavior assessment within 6 months before screening, at screening, or at baseline, or has been hospitalized or treated for suicidal behavior in the past 5 years before screening\n14. Known or suspected history of drug or alcohol abuse or dependence within 2 years before screening or a positive urine drug test at screening. Participants who test positive for benzodiazepines, opioids, or tetrahydrocannabinol (THC) in urine drug testing need not be excluded unless in the clinical opinion of the investigator this is due to potential drug abuse\n15. Taking prohibited medications\n16. Participation in a clinical study involving:\n\n    * Any anti-amyloid plaque lowering immunotherapy (example, therapeutic monoclonal antibody or active anti-amyloid vaccine) at any time, unless it can be documented that the participant was randomized to placebo or never received study drug\n    * Any immunoglobulin therapy, or vaccine within 6 months before Screening, unless it can be documented that the participant was randomized to placebo or never received study drug\n    * Lecanemab\n    * Any new chemical entities or investigational drug for AD within 6 months before randomization unless it can be documented that the participant received only placebo\n    * Any other investigational medication or device study in the 8 weeks or 5 half-lives (whichever is longer) of the medication before randomization unless it can be documented that the participant was in a placebo treatment arm\n17. Planned surgery during the pre-randomization phase or within 3 months of randomization, which requires general anesthesia\n\nFor extension phase:\n\n1. Discontinued from the Core Study or from study treatment\n2. Under study drug interruption due to ARIA or other AE at the time of transition to the extension phase","healthyVolunteers":false,"sex":"ALL","minimumAge":"55 Years","maximumAge":"80 Years","stdAges":["ADULT","OLDER_ADULT"]},"contactsLocationsModule":{"locations":[{"facility":"University of Alabama, Birmingham","city":"Birmingham","state":"Alabama","zip":"35233","country":"United States","geoPoint":{"lat":33.52066,"lon":-86.80249}},{"facility":"Banner Alzheimer's Institute","city":"Phoenix","state":"Arizona","zip":"85006","country":"United States","geoPoint":{"lat":33.44838,"lon":-112.07404}},{"facility":"Banner Sun Health Research Institute","city":"Sun City","state":"Arizona","zip":"85351","country":"United States","geoPoint":{"lat":33.59754,"lon":-112.27182}},{"facility":"UCI MIND","city":"Irvine","state":"California","zip":"92697-4285","country":"United States","geoPoint":{"lat":33.66946,"lon":-117.82311}},{"facility":"University of Southern California","city":"Los Angeles","state":"California","zip":"90033","country":"United States","geoPoint":{"lat":34.05223,"lon":-118.24368}},{"facility":"Hoag Memorial Hospital Presbyterian","city":"Newport Beach","state":"California","zip":"92663","country":"United States","geoPoint":{"lat":33.61891,"lon":-117.92895}},{"facility":"Stanford University","city":"Palo Alto","state":"California","zip":"94304","country":"United States","geoPoint":{"lat":37.44188,"lon":-122.14302}},{"facility":"Sharp Mesa Vista Hospital","city":"San Diego","state":"California","zip":"92123","country":"United States","geoPoint":{"lat":32.71571,"lon":-117.16472}},{"facility":"University of California, San Francisco","city":"San Francisco","state":"California","zip":"94158","country":"United States","geoPoint":{"lat":37.77493,"lon":-122.41942}},{"facility":"University of California, Davis","city":"Walnut Creek","state":"California","zip":"94598","country":"United States","geoPoint":{"lat":37.90631,"lon":-122.06496}},{"facility":"Yale University School of Medicine","city":"New Haven","state":"Connecticut","zip":"06510","country":"United States","geoPoint":{"lat":41.30815,"lon":-72.92816}},{"facility":"Georgetown University","city":"Washington D.C.","state":"District of Columbia","zip":"20057","country":"United States","geoPoint":{"lat":38.89511,"lon":-77.03637}},{"facility":"Howard University","city":"Washington D.C.","state":"District of Columbia","zip":"20060","country":"United States","geoPoint":{"lat":38.89511,"lon":-77.03637}},{"facility":"Advanced Clinical Research Network, Corp","city":"Coral Gables","state":"Florida","zip":"33134-1613","country":"United States","geoPoint":{"lat":25.72149,"lon":-80.26838}},{"facility":"Brain Matters Research","city":"Delray Beach","state":"Florida","zip":"33445","country":"United States","geoPoint":{"lat":26.46146,"lon":-80.07282}},{"facility":"Mayo Clinic Jacksonville","city":"Jacksonville","state":"Florida","zip":"32224","country":"United States","geoPoint":{"lat":30.33218,"lon":-81.65565}},{"facility":"K2 Medical Research - The Villages","city":"Lady Lake","state":"Florida","zip":"32159","country":"United States","geoPoint":{"lat":28.91749,"lon":-81.92286}},{"facility":"K2 Medical Research, Llc","city":"Maitland","state":"Florida","zip":"32751","country":"United States","geoPoint":{"lat":28.62778,"lon":-81.36312}},{"facility":"Gonzalez MD & Aswad MD Health Sciences","city":"Miami","state":"Florida","zip":"33125","country":"United States","geoPoint":{"lat":25.77427,"lon":-80.19366}},{"facility":"Wien Center for Clinical Research","city":"Miami Beach","state":"Florida","zip":"33140","country":"United States","geoPoint":{"lat":25.79065,"lon":-80.13005}},{"facility":"Renstar Medical Research","city":"Ocala","state":"Florida","zip":"34470","country":"United States","geoPoint":{"lat":29.1872,"lon":-82.14009}},{"facility":"Synexus Clinical Research - Orlando","city":"Orlando","state":"Florida","zip":"32806","country":"United States","geoPoint":{"lat":28.53834,"lon":-81.37924}},{"facility":"University of South Florida - Health Byrd Alzheimer Institute","city":"Tampa","state":"Florida","zip":"33613","country":"United States","geoPoint":{"lat":27.94752,"lon":-82.45843}},{"facility":"Synexus Clinical Research - The Villages","city":"The Villages","state":"Florida","zip":"32162","country":"United States","geoPoint":{"lat":28.93408,"lon":-81.95994}},{"facility":"Alzheimer's Research and Treatment Center","city":"Wellington","state":"Florida","zip":"33414","country":"United States","geoPoint":{"lat":26.65868,"lon":-80.24144}},{"facility":"Charter Research","city":"Winter Park","state":"Florida","zip":"31792","country":"United States","geoPoint":{"lat":28.6,"lon":-81.33924}},{"facility":"Emory University","city":"Atlanta","state":"Georgia","zip":"30329","country":"United States","geoPoint":{"lat":33.749,"lon":-84.38798}},{"facility":"Columbus Memory Center","city":"Columbus","state":"Georgia","zip":"31909","country":"United States","geoPoint":{"lat":32.46098,"lon":-84.98771}},{"facility":"Northwestern University","city":"Chicago","state":"Illinois","zip":"60611","country":"United States","geoPoint":{"lat":41.85003,"lon":-87.65005}},{"facility":"Rush University Medical Center","city":"Chicago","state":"Illinois","zip":"60612","country":"United States","geoPoint":{"lat":41.85003,"lon":-87.65005}},{"facility":"Indiana University School of Medicine","city":"Indianapolis","state":"Indiana","zip":"46202","country":"United States","geoPoint":{"lat":39.76838,"lon":-86.15804}},{"facility":"University of Kansas","city":"Fairway","state":"Kansas","zip":"66205","country":"United States","geoPoint":{"lat":39.02223,"lon":-94.6319}},{"facility":"University of Kentucky","city":"Lexington","state":"Kentucky","zip":"40504","country":"United States","geoPoint":{"lat":37.98869,"lon":-84.47772}},{"facility":"Johns Hopkins University","city":"Baltimore","state":"Maryland","zip":"21224","country":"United States","geoPoint":{"lat":39.29038,"lon":-76.61219}},{"facility":"Boston University","city":"Boston","state":"Massachusetts","zip":"02118","country":"United States","geoPoint":{"lat":42.35843,"lon":-71.05977}},{"facility":"Brigham and Woman's Hospital Center for Alzheimer Research and Treatment","city":"Boston","state":"Massachusetts","zip":"21155","country":"United States","geoPoint":{"lat":42.35843,"lon":-71.05977}},{"facility":"Donald S.Marks, M.D.,P.C.","city":"Plymouth","state":"Massachusetts","zip":"02360","country":"United States","geoPoint":{"lat":41.95844,"lon":-70.66726}},{"facility":"University of Michigan","city":"Ann Arbor","state":"Michigan","zip":"48105","country":"United States","geoPoint":{"lat":42.27756,"lon":-83.74088}},{"facility":"Mayo Clinic, Rochester","city":"Rochester","state":"Minnesota","zip":"55905","country":"United States","geoPoint":{"lat":44.02163,"lon":-92.4699}},{"facility":"Washington University, St. Louis","city":"St Louis","state":"Missouri","zip":"63108","country":"United States","geoPoint":{"lat":38.62727,"lon":-90.19789}},{"facility":"Cleveland Clinic Lou Ruvo Center for Brain Health","city":"Las Vegas","state":"Nevada","zip":"89106","country":"United States","geoPoint":{"lat":36.17497,"lon":-115.13722}},{"facility":"Advanced Memory Research Institute of New Jersey","city":"Toms River","state":"New Jersey","zip":"08755","country":"United States","geoPoint":{"lat":39.95373,"lon":-74.19792}},{"facility":"Icahn School of Medicine at Mount Sinai","city":"New York","state":"New York","zip":"10029","country":"United States","geoPoint":{"lat":40.71427,"lon":-74.00597}},{"facility":"Columbia University","city":"New York","state":"New York","zip":"10032","country":"United States","geoPoint":{"lat":40.71427,"lon":-74.00597}},{"facility":"University of Rochester","city":"Rochester","state":"New York","zip":"14620","country":"United States","geoPoint":{"lat":43.15478,"lon":-77.61556}},{"facility":"Duke Health Center","city":"Durham","state":"North Carolina","zip":"27705","country":"United States","geoPoint":{"lat":35.99403,"lon":-78.89862}},{"facility":"AMC Research","city":"Matthews","state":"North Carolina","zip":"28105","country":"United States","geoPoint":{"lat":35.11681,"lon":-80.72368}},{"facility":"Wake Forest University Health Sciences","city":"Winston-Salem","state":"North Carolina","zip":"27157","country":"United States","geoPoint":{"lat":36.09986,"lon":-80.24422}},{"facility":"Case Western Reserve University/University Hospitals","city":"Beachwood","state":"Ohio","zip":"44122","country":"United States","geoPoint":{"lat":41.4645,"lon":-81.50873}},{"facility":"Cleveland Clinic Lou Ruvo Center for Brain Health","city":"Cleveland","state":"Ohio","zip":"44195","country":"United States","geoPoint":{"lat":41.4995,"lon":-81.69541}},{"facility":"Ohio State University","city":"Columbus","state":"Ohio","zip":"43210","country":"United States","geoPoint":{"lat":39.96118,"lon":-82.99879}},{"facility":"Central States Research, LLC","city":"Tulsa","state":"Oklahoma","zip":"74136","country":"United States","geoPoint":{"lat":36.15398,"lon":-95.99277}},{"facility":"Summit Research Network, Oregon","city":"Portland","state":"Oregon","zip":"97210","country":"United States","geoPoint":{"lat":45.52345,"lon":-122.67621}},{"facility":"Oregon Health & Science University","city":"Portland","state":"Oregon","zip":"97239","country":"United States","geoPoint":{"lat":45.52345,"lon":-122.67621}},{"facility":"Abington Neurological Associates","city":"Abington","state":"Pennsylvania","zip":"19001","country":"United States","geoPoint":{"lat":40.12067,"lon":-75.11795}},{"facility":"Keystone Clinical Studies, LLC","city":"Norristown","state":"Pennsylvania","zip":"19403","country":"United States","geoPoint":{"lat":40.1215,"lon":-75.3399}},{"facility":"University of Pennsylvania","city":"Philadelphia","state":"Pennsylvania","zip":"19104","country":"United States","geoPoint":{"lat":39.95238,"lon":-75.16362}},{"facility":"University of Pittsburgh","city":"Pittsburgh","state":"Pennsylvania","zip":"15213","country":"United States","geoPoint":{"lat":40.44062,"lon":-79.99589}},{"facility":"Rhode Island Hospital","city":"Providence","state":"Rhode Island","zip":"02903","country":"United States","geoPoint":{"lat":41.82399,"lon":-71.41283}},{"facility":"Butler Hospital Memory and Aging Program","city":"Providence","state":"Rhode Island","zip":"02906","country":"United States","geoPoint":{"lat":41.82399,"lon":-71.41283}},{"facility":"Ralph H. Johnson VA Medical Center","city":"Charleston","state":"South Carolina","zip":"20403","country":"United States","geoPoint":{"lat":32.77632,"lon":-79.93275}},{"facility":"Vanderbilt University Medical Center","city":"Nashville","state":"Tennessee","zip":"37212","country":"United States","geoPoint":{"lat":36.16589,"lon":-86.78444}},{"facility":"University of Texas, Southwestern MC at Dallas","city":"Dallas","state":"Texas","zip":"75390","country":"United States","geoPoint":{"lat":32.78306,"lon":-96.80667}},{"facility":"University of North Texas Health Sciences Center","city":"Fort Worth","state":"Texas","zip":"76107","country":"United States","geoPoint":{"lat":32.72541,"lon":-97.32085}},{"facility":"Baylor College of Medicine","city":"Houston","state":"Texas","zip":"77030","country":"United States","geoPoint":{"lat":29.76328,"lon":-95.36327}},{"facility":"Houston Methodist Neurological Institute","city":"Houston","state":"Texas","zip":"77030","country":"United States","geoPoint":{"lat":29.76328,"lon":-95.36327}},{"facility":"The University of Texas Health Science Center at San Antonio","city":"San Antonio","state":"Texas","zip":"78229-3900","country":"United States","geoPoint":{"lat":29.42412,"lon":-98.49363}},{"facility":"Eastern Virginia Medical School","city":"Norfolk","state":"Virginia","zip":"23507","country":"United States","geoPoint":{"lat":36.84681,"lon":-76.28522}},{"facility":"National Clinical Research, Inc","city":"Richmond","state":"Virginia","zip":"23294","country":"United States","geoPoint":{"lat":37.55376,"lon":-77.46026}},{"facility":"University of Washington Memory and Brain Wellness Center","city":"Seattle","state":"Washington","zip":"98104","country":"United States","geoPoint":{"lat":47.60621,"lon":-122.33207}},{"facility":"SIBCR","city":"Seattle","state":"Washington","zip":"98108","country":"United States","geoPoint":{"lat":47.60621,"lon":-122.33207}},{"facility":"University of Wisconsin, Madison","city":"Madison","state":"Wisconsin","zip":"53792","country":"United States","geoPoint":{"lat":43.07305,"lon":-89.40123}},{"facility":"St Vincent's Hospital Sydney","city":"Darlinghurst","state":"New South Wales","country":"Australia","geoPoint":{"lat":-33.87939,"lon":151.21925}},{"facility":"Calvary Mater Newcastle","city":"Waratah","state":"New South Wales","country":"Australia","geoPoint":{"lat":-32.90667,"lon":151.72647}},{"facility":"Westmead Hospital","city":"Westmead","state":"New South Wales","country":"Australia","geoPoint":{"lat":-33.80383,"lon":150.98768}},{"facility":"CALHN Cognitive Neurology Clinical Trials","city":"Adelaide","state":"South Australia","country":"Australia","geoPoint":{"lat":-34.92866,"lon":138.59863}},{"facility":"Austin Hospital - Medical and Cognitive Research Unit","city":"Ivanhoe","state":"Victoria","country":"Australia","geoPoint":{"lat":-37.76903,"lon":145.04308}},{"facility":"Alzheimer's Research Australia","city":"Nedlands","state":"Western Australia","zip":"06009","country":"Australia","geoPoint":{"lat":-31.98184,"lon":115.8073}},{"facility":"Centricity Research","city":"Hailfax","state":"Nova Scotia","zip":"B3S 1L8","country":"Canada"},{"facility":"True North Clinical Research Inc.","city":"New Minas","state":"Nova Scotia","zip":"B4N 3R7","country":"Canada","geoPoint":{"lat":45.0691,"lon":-64.46958}},{"facility":"True North Clinical Research","city":"New Minas","state":"Nova Scotia","zip":"B4N 3R7","country":"Canada","geoPoint":{"lat":45.0691,"lon":-64.46958}},{"facility":"Parkwood Institute Main Building","city":"London","state":"Ontario","zip":"N6C0A7","country":"Canada","geoPoint":{"lat":42.98339,"lon":-81.23304}},{"facility":"Toronto Memory Program","city":"Toronto","state":"Ontario","zip":"M3B 2S7","country":"Canada","geoPoint":{"lat":43.70643,"lon":-79.39864}},{"facility":"Sunnybrook Health Sciences Centre","city":"Toronto","state":"Ontario","zip":"M4N 3M5","country":"Canada","geoPoint":{"lat":43.70643,"lon":-79.39864}},{"facility":"National Center for Geriatrics and Gerontology","city":"Obu-shi","state":"Aichi-ken","zip":"474-8511","country":"Japan"},{"facility":"Fukuoka University Hospital","city":"Fukuoka","state":"Fukuoka","zip":"814-0180","country":"Japan","geoPoint":{"lat":33.6,"lon":130.41667}},{"facility":"Kobe University Hospital","city":"Kobe","state":"Hyōgo","zip":"650-0017","country":"Japan","geoPoint":{"lat":34.6913,"lon":135.183}},{"facility":"Shonan Kamakura General Hospital","city":"Kamakura-shi","state":"Kanagawa","zip":"247-8533","country":"Japan"},{"facility":"Koseikai Takeda Hospital","city":"Kyoto","state":"Kyoto","zip":"600-8558","country":"Japan","geoPoint":{"lat":35.02107,"lon":135.75385}},{"facility":"Tohoku University Hospital","city":"Sendai","state":"Miyagi","zip":"980-8574","country":"Japan","geoPoint":{"lat":38.26667,"lon":140.86667}},{"facility":"Medical Corporation Heishinkai OPHAC Hospital","city":"Osaka","state":"Osaka","zip":"532-0003","country":"Japan","geoPoint":{"lat":34.69379,"lon":135.50107}},{"facility":"The University of Osaka Hospital","city":"Suita-shi","state":"Osaka","zip":"565-0871","country":"Japan"},{"facility":"The University of Tokyo Hospital","city":"Bunkyo-ku","state":"Tokyo","zip":"113-8655","country":"Japan"},{"facility":"P-One Clinic, Keikokai Medical Corporation","city":"Hachioji -shi","state":"Tokyo","zip":"192-0071","country":"Japan"},{"facility":"Tokyo Metropolitan Institute for Geriatrics and Gerontology","city":"Itabashi-ku","state":"Tokyo","zip":"173-0015","country":"Japan"},{"facility":"National Center of Neurology and Psychiatry","city":"Kodaira-shi","state":"Tokyo","zip":"187-8551","country":"Japan"},{"facility":"ICR Clinical Research Hospital Tokyo","city":"Shinjuku-Ku","state":"Tokyo","zip":"160-0004","country":"Japan"},{"facility":"National University Hospital","city":"Singapore","country":"Singapore","geoPoint":{"lat":1.28967,"lon":103.85007}},{"facility":"Barcelona Beta Brain Research Center (BBRC)","city":"Barcelona","zip":"08005","country":"Spain","geoPoint":{"lat":41.38879,"lon":2.15899}},{"facility":"Fundació ACE","city":"Barcelona","zip":"08028","country":"Spain","geoPoint":{"lat":41.38879,"lon":2.15899}},{"facility":"Fundacion CITA ALZHEIMER","city":"Donostia / San Sebastian","zip":"20009","country":"Spain","geoPoint":{"lat":43.31283,"lon":-1.97499}},{"facility":"Hospital Universitario Quirón Salud Madrid","city":"Madrid","zip":"28223","country":"Spain","geoPoint":{"lat":40.4165,"lon":-3.70256}},{"facility":"Hospital Universitario Marqués de Valdeciila","city":"Santander","zip":"39008","country":"Spain","geoPoint":{"lat":43.46589,"lon":-3.80493}},{"facility":"Bristol Brain Centre","city":"Bristol","zip":"BS10 5NB","country":"United Kingdom","geoPoint":{"lat":51.45523,"lon":-2.59665}},{"facility":"Glasgow Memory Clinic","city":"Glasgow","zip":"ML1 4UF","country":"United Kingdom","geoPoint":{"lat":55.86515,"lon":-4.25763}},{"facility":"St Pancras Clinical Research","city":"London","zip":"EC2Y 8EA","country":"United Kingdom","geoPoint":{"lat":51.50853,"lon":-0.12574}},{"facility":"Imperial Memory Unit","city":"London","zip":"W6 8RF","country":"United Kingdom","geoPoint":{"lat":51.50853,"lon":-0.12574}}]},"referencesModule":{"references":[{"pmid":"38940656","type":"DERIVED","citation":"Devanarayan V, Doherty T, Charil A, Sachdev P, Ye Y, Murali LK, Llano DA, Zhou J, Reyderman L, Hampel H, Kramer LD, Dhadda S, Irizarry MC. Plasma pTau217 predicts continuous brain amyloid levels in preclinical and early Alzheimer's disease. Alzheimers Dement. 2024 Aug;20(8):5617-5628. doi: 10.1002/alz.14073. Epub 2024 Jun 28."},{"pmid":"38629508","type":"DERIVED","citation":"Molina-Henry DP, Raman R, Liu A, Langford O, Johnson K, Shum LK, Glover CM, Dhadda S, Irizarry M, Jimenez-Maggiora G, Braunstein JB, Yarasheski K, Venkatesh V, West T, Verghese PB, Rissman RA, Aisen P, Grill JD, Sperling RA. Racial and ethnic differences in plasma biomarker eligibility for a preclinical Alzheimer's disease trial. Alzheimers Dement. 2024 Jun;20(6):3827-3838. doi: 10.1002/alz.13803. Epub 2024 Apr 17."},{"pmid":"37932961","type":"DERIVED","citation":"Rissman RA, Langford O, Raman R, Donohue MC, Abdel-Latif S, Meyer MR, Wente-Roth T, Kirmess KM, Ngolab J, Winston CN, Jimenez-Maggiora G, Rafii MS, Sachdev P, West T, Yarasheski KE, Braunstein JB, Irizarry M, Johnson KA, Aisen PS, Sperling RA; AHEAD 3-45 Study team. Plasma Abeta42/Abeta40 and phospho-tau217 concentration ratios increase the accuracy of amyloid PET classification in preclinical Alzheimer's disease. Alzheimers Dement. 2024 Feb;20(2):1214-1224. doi: 10.1002/alz.13542. Epub 2023 Nov 6."},{"pmid":"37131229","type":"DERIVED","citation":"Kirn DR, Grill JD, Aisen P, Ernstrom K, Gale S, Heidebrink J, Jicha G, Jimenez-Maggiora G, Johnson L, Peskind E, McCann K, Shaffer E, Sultzer D, Wang S, Sperling R, Raman R. Centralizing prescreening data collection to inform data-driven approaches to clinical trial recruitment. Alzheimers Res Ther. 2023 May 2;15(1):88. doi: 10.1186/s13195-023-01235-4."}]},"ipdSharingStatementModule":{"ipdSharing":"YES","description":"Eisai's data sharing commitment and further information on how to request data can be found on our website http://eisaiclinicaltrials.com/."}},"derivedSection":{"miscInfoModule":{"versionHolder":"2026-07-02","removedCountries":["Netherlands","Sweden"]},"interventionBrowseModule":{"meshes":[{"id":"C000612089","term":"lecanemab"}]}},"hasResults":false}